{"AN": {"nom": "Barcelona - Av. Lluís Companys", "lat": 41.39004, "lon": 2.18091, "alt": 7.5, "provincia": "Barcelona"}, "C6": {"nom": "Castellnou de Seana", "lat": 41.65662, "lon": 0.95172, "alt": 264, "provincia": "Lleida"}, "C7": {"nom": "Tàrrega", "lat": 41.66696, "lon": 1.16229, "alt": 429, "provincia": "Lleida"}, "C8": {"nom": "Cervera", "lat": 41.67556, "lon": 1.2961, "alt": 556, "provincia": "Lleida"}, "C9": {"nom": "Mas de Barberans", "lat": 40.71822, "lon": 0.39986, "alt": 241, "provincia": "Tarragona"}, "CA": {"nom": "Clariana de Cardener", "lat": 41.95378, "lon": 1.5851, "alt": 693, "provincia": "Lleida"}, "CB": {"nom": "les Llosses", "lat": 42.15085, "lon": 2.19914, "alt": 700, "provincia": "Girona"}, "CC": {"nom": "Orís", "lat": 42.07397, "lon": 2.20865, "alt": 627, "provincia": "Barcelona"}, "CD": {"nom": "la Seu d'Urgell - Bellestar", "lat": 42.37083, "lon": 1.43279, "alt": 849, "provincia": "Lleida"}, "CE": {"nom": "els Hostalets de Pierola", "lat": 41.53107, "lon": 1.80814, "alt": 318, "provincia": "Barcelona"}, "CF": {"nom": "Lloret de Mar", "lat": 41.72346, "lon": 2.84282, "alt": 63.3, "provincia": "Girona"}, "CG": {"nom": "Molló - Fabert", "lat": 42.37718, "lon": 2.41452, "alt": 1405, "provincia": "Girona"}, "CH": {"nom": "Falset - Escola", "lat": 41.15076, "lon": 0.82357, "alt": 350, "provincia": "Tarragona"}, "CI": {"nom": "Sant Pau de Segúries", "lat": 42.25835, "lon": 2.36426, "alt": 853, "provincia": "Girona"}, "CJ": {"nom": "Organyà", "lat": 42.21622, "lon": 1.33133, "alt": 568, "provincia": "Lleida"}, "CK": {"nom": "Santa Coloma de Farners", "lat": 41.86472, "lon": 2.66451, "alt": 163, "provincia": "Girona"}, "CL": {"nom": "Sant Salvador de Guardiola", "lat": 41.67403, "lon": 1.76797, "alt": 347, "provincia": "Barcelona"}, "CM": {"nom": "Montmeló", "lat": 41.54911, "lon": 2.24546, "alt": 75.2, "provincia": "Barcelona"}, "CN": {"nom": "Guardiola de Berguedà - Escola", "lat": 42.22903, "lon": 1.87672, "alt": 719.8, "provincia": "Barcelona"}, "CO": {"nom": "Torres de Segre - Depuradora", "lat": 41.52603, "lon": 0.52711, "alt": 143.6, "provincia": "Lleida"}, "CP": {"nom": "Sant Romà d'Abella", "lat": 42.13922, "lon": 1.03894, "alt": 689, "provincia": "Lleida"}, "CQ": {"nom": "Vilanova de Meià", "lat": 41.99546, "lon": 1.02569, "alt": 594, "provincia": "Lleida"}, "CR": {"nom": "la Quar", "lat": 42.08032, "lon": 1.96244, "alt": 872, "provincia": "Barcelona"}, "CS": {"nom": "Viladrau - centre", "lat": 41.84502, "lon": 2.3881, "alt": 777, "provincia": "Girona"}, "CT": {"nom": "el Pont de Suert", "lat": 42.39809, "lon": 0.74364, "alt": 824, "provincia": "Lleida"}, "CU": {"nom": "Vielha", "lat": 42.69856, "lon": 0.79397, "alt": 1002, "provincia": "Lleida"}, "CV": {"nom": "la Pobla de Segur - Bombers", "lat": 42.23939, "lon": 0.96434, "alt": 513.3, "provincia": "Lleida"}, "CW": {"nom": "l'Espluga de Francolí", "lat": 41.39242, "lon": 1.09895, "alt": 446, "provincia": "Tarragona"}, "CX": {"nom": "Vic - 1", "lat": 41.93582, "lon": 2.23857, "alt": 497.8, "provincia": "Barcelona"}, "CY": {"nom": "Muntanyola", "lat": 41.8781, "lon": 2.17875, "alt": 816, "provincia": "Barcelona"}, "CZ": {"nom": "Ulldemolins - Zona Esportiva", "lat": 41.3191, "lon": 0.87868, "alt": 631, "provincia": "Tarragona"}, "D1": {"nom": "Margalef", "lat": 41.28522, "lon": 0.75387, "alt": 404, "provincia": "Tarragona"}, "D2": {"nom": "Vacarisses", "lat": 41.59251, "lon": 1.91499, "alt": 343, "provincia": "Barcelona"}, "D3": {"nom": "Vallirana", "lat": 41.38199, "lon": 1.93565, "alt": 255, "provincia": "Barcelona"}, "D4": {"nom": "Roses", "lat": 42.27068, "lon": 3.18147, "alt": 23, "provincia": "Girona"}, "D5": {"nom": "Barcelona - Observatori Fabra", "lat": 41.41864, "lon": 2.12379, "alt": 410, "provincia": "Barcelona"}, "D6": {"nom": "Portbou - coll dels Belitres", "lat": 42.43514, "lon": 3.16619, "alt": 198, "provincia": "Girona"}, "D7": {"nom": "Vinebre", "lat": 41.18498, "lon": 0.59374, "alt": 51, "provincia": "Tarragona"}, "D8": {"nom": "Horta de Sant Joan", "lat": 40.95134, "lon": 0.30563, "alt": 517, "provincia": "Tarragona"}, "D9": {"nom": "el Vendrell", "lat": 41.21554, "lon": 1.52117, "alt": 59, "provincia": "Tarragona"}, "DA": {"nom": "Vila-rodona - Escola", "lat": 41.30839, "lon": 1.3622, "alt": 278, "provincia": "Tarragona"}, "DB": {"nom": "el Perelló", "lat": 40.87289, "lon": 0.71577, "alt": 180, "provincia": "Tarragona"}, "DC": {"nom": "Olot - pla de Baix", "lat": 42.19144, "lon": 2.48263, "alt": 421.5, "provincia": "Girona"}, "DD": {"nom": "Vilassar de Mar", "lat": 41.51175, "lon": 2.38674, "alt": 44.5, "provincia": "Barcelona"}, "DE": {"nom": "Botarell", "lat": 41.15404, "lon": 0.99772, "alt": 231, "provincia": "Tarragona"}, "DF": {"nom": "la Bisbal d'Empordà", "lat": 41.97752, "lon": 3.03551, "alt": 30, "provincia": "Girona"}, "DG": {"nom": "Núria (1.971 m)", "lat": 42.39848, "lon": 2.15517, "alt": 1971, "provincia": "Girona"}, "DH": {"nom": "Badalona - Mas Ram", "lat": 41.47638, "lon": 2.25213, "alt": 126, "provincia": "Barcelona"}, "DI": {"nom": "Font-rubí", "lat": 41.4329, "lon": 1.62386, "alt": 414, "provincia": "Barcelona"}, "DJ": {"nom": "Banyoles", "lat": 42.11655, "lon": 2.78971, "alt": 178, "provincia": "Girona"}, "DK": {"nom": "Torredembarra", "lat": 41.14675, "lon": 1.41843, "alt": 2, "provincia": "Tarragona"}, "DL": {"nom": "Illa de Buda", "lat": 40.70717, "lon": 0.83447, "alt": 1, "provincia": "Tarragona"}, "DM": {"nom": "Girona - Bombers", "lat": 41.96012, "lon": 2.80696, "alt": 90, "provincia": "Girona"}, "DN": {"nom": "Anglès", "lat": 41.96093, "lon": 2.6311, "alt": 151, "provincia": "Girona"}, "DO": {"nom": "Castell d'Aro", "lat": 41.80855, "lon": 3.03241, "alt": 14, "provincia": "Girona"}, "DP": {"nom": "Das - Aeròdrom", "lat": 42.38603, "lon": 1.86639, "alt": 1096, "provincia": "Girona"}, "DQ": {"nom": "Vila-rodona", "lat": 41.30727, "lon": 1.3626, "alt": 286, "provincia": "Tarragona"}, "H1": {"nom": "Òdena", "lat": 41.5864, "lon": 1.65308, "alt": 333, "provincia": "Barcelona"}, "J5": {"nom": "Pantà de Darnius - Boadella", "lat": 42.34214, "lon": 2.83425, "alt": 159, "provincia": "Girona"}, "KE": {"nom": "Pantà de Sau", "lat": 41.96861, "lon": 2.41409, "alt": 436, "provincia": "Barcelona"}, "KP": {"nom": "Fogars de la Selva", "lat": 41.73892, "lon": 2.69438, "alt": 42, "provincia": "Barcelona"}, "KX": {"nom": "la Roca del Vallès - ETAP Cardedeu", "lat": 41.61865, "lon": 2.36114, "alt": 164, "provincia": "Barcelona"}, "M6": {"nom": "Sant Joan de les Abadesses", "lat": 42.22187, "lon": 2.24267, "alt": 736, "provincia": "Girona"}, "MQ": {"nom": "Cardona", "lat": 41.92044, "lon": 1.69586, "alt": 402, "provincia": "Barcelona"}, "MR": {"nom": "Pantà de Siurana", "lat": 41.2508, "lon": 0.91063, "alt": 503, "provincia": "Tarragona"}, "MS": {"nom": "Castellar de n'Hug - el Clot del Moro", "lat": 42.25943, "lon": 1.9761, "alt": 940, "provincia": "Barcelona"}, "MV": {"nom": "Guixers - Valls", "lat": 42.13595, "lon": 1.67297, "alt": 845, "provincia": "Lleida"}, "MW": {"nom": "Navès", "lat": 42.00707, "lon": 1.65239, "alt": 549, "provincia": "Lleida"}, "R1": {"nom": "el Pont de Vilomara", "lat": 41.70637, "lon": 1.87276, "alt": 210, "provincia": "Barcelona"}, "U1": {"nom": "Cabanes - Mas de la Rajoleria", "lat": 42.30648, "lon": 2.95481, "alt": 31, "provincia": "Girona"}, "U2": {"nom": "Sant Pere Pescador", "lat": 42.17716, "lon": 3.0968, "alt": 3, "provincia": "Girona"}, "U3": {"nom": "Sant Martí Sarroca", "lat": 41.37492, "lon": 1.6303, "alt": 257, "provincia": "Barcelona"}, "U4": {"nom": "Castellnou de Bages", "lat": 41.83094, "lon": 1.84699, "alt": 507, "provincia": "Barcelona"}, "U5": {"nom": "Prades - los Hortals", "lat": 41.31349, "lon": 0.99611, "alt": 969, "provincia": "Tarragona"}, "U6": {"nom": "Vinyols i els Arcs - Cambrils", "lat": 41.08015, "lon": 1.06661, "alt": 30, "provincia": "Tarragona"}, "U7": {"nom": "Aldover", "lat": 40.85936, "lon": 0.50525, "alt": 53, "provincia": "Tarragona"}, "U8": {"nom": "Punta del Fangar", "lat": 40.78653, "lon": 0.74264, "alt": 0, "provincia": "Tarragona"}, "U9": {"nom": "l'Aldea", "lat": 40.76946, "lon": 0.61635, "alt": 64, "provincia": "Tarragona"}, "UA": {"nom": "l'Ametlla de Mar", "lat": 40.9091, "lon": 0.76943, "alt": 94, "provincia": "Tarragona"}, "UB": {"nom": "la Tallada d'Empordà", "lat": 42.05394, "lon": 3.06198, "alt": 15, "provincia": "Girona"}, "UC": {"nom": "Monells", "lat": 41.97726, "lon": 2.99705, "alt": 60, "provincia": "Girona"}, "UD": {"nom": "Serra de Daró", "lat": 42.02895, "lon": 3.06227, "alt": 12, "provincia": "Girona"}, "UE": {"nom": "Torroella de Montgrí", "lat": 42.02306, "lon": 3.15719, "alt": 4, "provincia": "Girona"}, "UF": {"nom": "PN del Garraf - el Rascler", "lat": 41.28833, "lon": 1.90773, "alt": 573, "provincia": "Barcelona"}, "UH": {"nom": "el Montmell", "lat": 41.34172, "lon": 1.48769, "alt": 547, "provincia": "Tarragona"}, "UI": {"nom": "Gisclareny", "lat": 42.26478, "lon": 1.76216, "alt": 1388, "provincia": "Barcelona"}, "UJ": {"nom": "Santa Coloma de Queralt", "lat": 41.52879, "lon": 1.3683, "alt": 709, "provincia": "Tarragona"}, "UK": {"nom": "Sant Pere de Ribes - PN del Garraf", "lat": 41.27861, "lon": 1.80478, "alt": 164, "provincia": "Barcelona"}, "UL": {"nom": "Castelldans", "lat": 41.52911, "lon": 0.75303, "alt": 228, "provincia": "Lleida"}, "UM": {"nom": "la Granadella", "lat": 41.35991, "lon": 0.66789, "alt": 507, "provincia": "Lleida"}, "UN": {"nom": "Cassà de la Selva", "lat": 41.87448, "lon": 2.92695, "alt": 178, "provincia": "Girona"}, "UO": {"nom": "Fornells de la Selva", "lat": 41.91461, "lon": 2.82071, "alt": 97, "provincia": "Girona"}, "UP": {"nom": "Cabrils", "lat": 41.51773, "lon": 2.37702, "alt": 81, "provincia": "Barcelona"}, "UQ": {"nom": "Dosrius - PN Montnegre Corredor", "lat": 41.61991, "lon": 2.44532, "alt": 462, "provincia": "Barcelona"}, "UR": {"nom": "Malgrat de Mar - Cooperativa", "lat": 41.64908, "lon": 2.75209, "alt": 2, "provincia": "Barcelona"}, "US": {"nom": "les Cases d'Alcanar", "lat": 40.55788, "lon": 0.52329, "alt": 25, "provincia": "Tarragona"}, "UT": {"nom": "Port de les Cases d'Alcanar", "lat": 40.55219, "lon": 0.53252, "alt": 3, "provincia": "Tarragona"}, "UU": {"nom": "Amposta", "lat": 40.70776, "lon": 0.63211, "alt": 3, "provincia": "Tarragona"}, "UV": {"nom": "Mas de Barberans - Mitanplana", "lat": 40.71727, "lon": 0.41633, "alt": 205, "provincia": "Tarragona"}, "UW": {"nom": "els Alfacs", "lat": 40.62725, "lon": 0.6592, "alt": 1, "provincia": "Tarragona"}, "UX": {"nom": "Ulldecona - els Valentins", "lat": 40.62653, "lon": 0.3711, "alt": 211, "provincia": "Tarragona"}, "UY": {"nom": "Os de Balaguer - el Monestir d'Avellanes", "lat": 41.87912, "lon": 0.76103, "alt": 577, "provincia": "Lleida"}, "V1": {"nom": "Vallfogona de Balaguer", "lat": 41.78487, "lon": 0.82939, "alt": 239, "provincia": "Lleida"}, "V3": {"nom": "Gurb", "lat": 41.95224, "lon": 2.23271, "alt": 509, "provincia": "Barcelona"}, "V4": {"nom": "Montesquiu", "lat": 42.11479, "lon": 2.21481, "alt": 683, "provincia": "Barcelona"}, "V5": {"nom": "Perafita", "lat": 42.03947, "lon": 2.11993, "alt": 777, "provincia": "Barcelona"}, "V6": {"nom": "Viladrau - Aigües de Viladrau", "lat": 41.84256, "lon": 2.42636, "alt": 871, "provincia": "Girona"}, "V7": {"nom": "Embassament de Sau", "lat": 41.97554, "lon": 2.39837, "alt": 435, "provincia": "Barcelona"}, "V8": {"nom": "el Poal", "lat": 41.6728, "lon": 0.87743, "alt": 224, "provincia": "Lleida"}, "V9": {"nom": "Miralcamp", "lat": 41.61333, "lon": 0.87608, "alt": 256, "provincia": "Lleida"}, "VA": {"nom": "Ascó", "lat": 41.1964, "lon": 0.51101, "alt": 258, "provincia": "Tarragona"}, "VB": {"nom": "Benissanet", "lat": 41.06303, "lon": 0.6355, "alt": 34, "provincia": "Tarragona"}, "VC": {"nom": "Pantà de Riba-roja", "lat": 41.2441, "lon": 0.4327, "alt": 77, "provincia": "Tarragona"}, "VD": {"nom": "el Canós", "lat": 41.68938, "lon": 1.20383, "alt": 430, "provincia": "Lleida"}, "VE": {"nom": "Aitona", "lat": 41.48692, "lon": 0.46058, "alt": 97, "provincia": "Lleida"}, "VF": {"nom": "Alcarràs - Torrent d'Alcarràs", "lat": 41.56482, "lon": 0.54999, "alt": 122, "provincia": "Lleida"}, "VH": {"nom": "Gimenells", "lat": 41.65825, "lon": 0.3932, "alt": 260, "provincia": "Lleida"}, "VI": {"nom": "Lleida", "lat": 41.62918, "lon": 0.59622, "alt": 190, "provincia": "Lleida"}, "VJ": {"nom": "Lleida - pla de Lleida", "lat": 41.59957, "lon": 0.6478, "alt": 161, "provincia": "Lleida"}, "VK": {"nom": "Raimat", "lat": 41.68325, "lon": 0.44871, "alt": 286, "provincia": "Lleida"}, "VL": {"nom": "Seròs - la Creu", "lat": 41.46014, "lon": 0.40562, "alt": 100, "provincia": "Lleida"}, "VM": {"nom": "Vilanova de Segrià", "lat": 41.71448, "lon": 0.62838, "alt": 223, "provincia": "Lleida"}, "VN": {"nom": "Vilobí d'Onyar", "lat": 41.88244, "lon": 2.74262, "alt": 117, "provincia": "Girona"}, "VO": {"nom": "Lladurs", "lat": 42.08745, "lon": 1.42792, "alt": 786, "provincia": "Lleida"}, "VP": {"nom": "Pinós", "lat": 41.80483, "lon": 1.53853, "alt": 660, "provincia": "Lleida"}, "VQ": {"nom": "Constantí", "lat": 41.1713, "lon": 1.16774, "alt": 113, "provincia": "Tarragona"}, "VR": {"nom": "Tornabous - Montargull", "lat": 41.68994, "lon": 1.04401, "alt": 291, "provincia": "Lleida"}, "VS": {"nom": "Lac Redon (2.245 m)", "lat": 42.63836, "lon": 0.7789, "alt": 2245, "provincia": "Lleida"}, "VT": {"nom": "Cerdanyola del Vallès", "lat": 41.48401, "lon": 2.12745, "alt": 84, "provincia": "Barcelona"}, "VU": {"nom": "Rellinars", "lat": 41.63285, "lon": 1.91718, "alt": 429, "provincia": "Barcelona"}, "VV": {"nom": "Sant Llorenç Savall", "lat": 41.68136, "lon": 2.02655, "alt": 530, "provincia": "Barcelona"}, "VW": {"nom": "Caldes de Montbui - Torre Marimon", "lat": 41.61235, "lon": 2.17099, "alt": 164.5, "provincia": "Barcelona"}, "VX": {"nom": "Tagamanent - PN del Montseny", "lat": 41.7476, "lon": 2.3029, "alt": 1030, "provincia": "Barcelona"}, "VY": {"nom": "Nulles", "lat": 41.25095, "lon": 1.29863, "alt": 239, "provincia": "Tarragona"}, "VZ": {"nom": "Espolla", "lat": 42.38443, "lon": 3.00739, "alt": 84, "provincia": "Girona"}, "W1": {"nom": "Castelló d'Empúries", "lat": 42.24726, "lon": 3.09022, "alt": 5, "provincia": "Girona"}, "W2": {"nom": "Torroella de Fluvià", "lat": 42.18259, "lon": 3.05783, "alt": 7, "provincia": "Girona"}, "W3": {"nom": "Ventalló", "lat": 42.15006, "lon": 3.06494, "alt": 4, "provincia": "Girona"}, "W4": {"nom": "Vilafranca del Penedès - la Granada", "lat": 41.36619, "lon": 1.72859, "alt": 240, "provincia": "Barcelona"}, "W5": {"nom": "Oliana", "lat": 42.07683, "lon": 1.31489, "alt": 491, "provincia": "Lleida"}, "W6": {"nom": "Riudoms", "lat": 41.13738, "lon": 1.0187, "alt": 158, "provincia": "Tarragona"}, "W8": {"nom": "Blancafort", "lat": 41.44237, "lon": 1.15998, "alt": 437, "provincia": "Tarragona"}, "W9": {"nom": "la Vall d'en Bas", "lat": 42.14557, "lon": 2.4545, "alt": 461, "provincia": "Girona"}, "WA": {"nom": "Oliola", "lat": 41.87694, "lon": 1.1541, "alt": 444, "provincia": "Lleida"}, "WB": {"nom": "Albesa", "lat": 41.76034, "lon": 0.67022, "alt": 268, "provincia": "Lleida"}, "WC": {"nom": "Golmés", "lat": 41.63641, "lon": 0.92445, "alt": 260, "provincia": "Lleida"}, "WD": {"nom": "Batea - Granja de Pere el Sec", "lat": 41.08671, "lon": 0.31884, "alt": 382, "provincia": "Tarragona"}, "WE": {"nom": "Vilanova del Vallès", "lat": 41.5444, "lon": 2.30014, "alt": 126, "provincia": "Barcelona"}, "WF": {"nom": "Vilablareix", "lat": 41.95425, "lon": 2.77578, "alt": 108, "provincia": "Girona"}, "WG": {"nom": "Algerri", "lat": 41.80106, "lon": 0.64801, "alt": 301, "provincia": "Lleida"}, "WH": {"nom": "Bellvís", "lat": 41.67342, "lon": 0.8129, "alt": 196, "provincia": "Lleida"}, "WI": {"nom": "Maials", "lat": 41.35741, "lon": 0.4809, "alt": 350, "provincia": "Lleida"}, "WJ": {"nom": "el Masroig", "lat": 41.1223, "lon": 0.72182, "alt": 143, "provincia": "Tarragona"}, "WK": {"nom": "Alfarràs", "lat": 41.81952, "lon": 0.57767, "alt": 269, "provincia": "Lleida"}, "WL": {"nom": "Sant Martí de Riucorb", "lat": 41.57236, "lon": 1.0882, "alt": 414, "provincia": "Lleida"}, "WM": {"nom": "Santuari de Queralt", "lat": 42.10736, "lon": 1.8267, "alt": 1169, "provincia": "Barcelona"}, "WN": {"nom": "Montserrat - Sant Dimes", "lat": 41.59539, "lon": 1.8375, "alt": 918, "provincia": "Barcelona"}, "WO": {"nom": "la Bisbal del Penedès", "lat": 41.27151, "lon": 1.46717, "alt": 185, "provincia": "Tarragona"}, "WP": {"nom": "Canaletes", "lat": 41.48518, "lon": 1.69341, "alt": 325, "provincia": "Barcelona"}, "WQ": {"nom": "Montsec d'Ares (1.571 m)", "lat": 42.0513, "lon": 0.72952, "alt": 1571, "provincia": "Lleida"}, "WR": {"nom": "Torroja del Priorat", "lat": 41.21629, "lon": 0.79745, "alt": 301, "provincia": "Tarragona"}, "WS": {"nom": "Viladrau", "lat": 41.84008, "lon": 2.41877, "alt": 956, "provincia": "Girona"}, "WT": {"nom": "Malgrat de Mar", "lat": 41.64706, "lon": 2.75659, "alt": 3, "provincia": "Barcelona"}, "WU": {"nom": "Badalona - Museu", "lat": 41.45215, "lon": 2.24757, "alt": 42, "provincia": "Barcelona"}, "WV": {"nom": "Guardiola de Berguedà", "lat": 42.23414, "lon": 1.87485, "alt": 787, "provincia": "Barcelona"}, "WW": {"nom": "Artés", "lat": 41.79424, "lon": 1.93683, "alt": 287, "provincia": "Barcelona"}, "WX": {"nom": "Camarasa", "lat": 41.9178, "lon": 0.88175, "alt": 669, "provincia": "Lleida"}, "WY": {"nom": "Sant Sadurní d'Anoia - el Clot de les Comes", "lat": 41.43386, "lon": 1.79429, "alt": 164, "provincia": "Barcelona"}, "WZ": {"nom": "Cunit", "lat": 41.20187, "lon": 1.63346, "alt": 18, "provincia": "Tarragona"}, "X1": {"nom": "Falset", "lat": 41.15374, "lon": 0.81952, "alt": 358, "provincia": "Tarragona"}, "X2": {"nom": "Barcelona - Zoo", "lat": 41.38943, "lon": 2.18847, "alt": 7, "provincia": "Barcelona"}, "X3": {"nom": "Alguaire", "lat": 41.7428, "lon": 0.53578, "alt": 371, "provincia": "Lleida"}, "X4": {"nom": "Barcelona - el Raval", "lat": 41.38386, "lon": 2.16774, "alt": 33, "provincia": "Barcelona"}, "X5": {"nom": "PN dels Ports", "lat": 40.79705, "lon": 0.31822, "alt": 1056, "provincia": "Tarragona"}, "X6": {"nom": "Baldomar", "lat": 41.92173, "lon": 1.02901, "alt": 366, "provincia": "Lleida"}, "X7": {"nom": "Torres de Segre", "lat": 41.51908, "lon": 0.55316, "alt": 215, "provincia": "Lleida"}, "X8": {"nom": "Barcelona - Zona Universitària", "lat": 41.37922, "lon": 2.10537, "alt": 82, "provincia": "Barcelona"}, "X9": {"nom": "Caldes de Montbui", "lat": 41.61264, "lon": 2.1683, "alt": 177, "provincia": "Barcelona"}, "XA": {"nom": "la Panadella", "lat": 41.60257, "lon": 1.4007, "alt": 783, "provincia": "Barcelona"}, "XB": {"nom": "la Llacuna", "lat": 41.47785, "lon": 1.53527, "alt": 585, "provincia": "Barcelona"}, "XC": {"nom": "Castellbisbal", "lat": 41.47892, "lon": 1.97546, "alt": 146, "provincia": "Barcelona"}, "XD": {"nom": "Ulldemolins", "lat": 41.31999, "lon": 0.8857, "alt": 687, "provincia": "Tarragona"}, "XE": {"nom": "Tarragona - Complex Educatiu", "lat": 41.10392, "lon": 1.201, "alt": 6, "provincia": "Tarragona"}, "XF": {"nom": "Sabadell - Parc Agrari", "lat": 41.56568, "lon": 2.06955, "alt": 259, "provincia": "Barcelona"}, "XG": {"nom": "Parets del Vallès", "lat": 41.5673, "lon": 2.22615, "alt": 118, "provincia": "Barcelona"}, "XH": {"nom": "Sort", "lat": 42.40537, "lon": 1.12997, "alt": 677, "provincia": "Lleida"}, "XI": {"nom": "Mollerussa", "lat": 41.61817, "lon": 0.87182, "alt": 246, "provincia": "Lleida"}, "XJ": {"nom": "Girona", "lat": 41.98215, "lon": 2.80552, "alt": 72, "provincia": "Girona"}, "XK": {"nom": "Puig Sesolles (1.666 m)", "lat": 41.77362, "lon": 2.43774, "alt": 1666, "provincia": "Barcelona"}, "XL": {"nom": "el Prat de Llobregat", "lat": 41.34054, "lon": 2.08019, "alt": 7, "provincia": "Barcelona"}, "XM": {"nom": "els Alamús", "lat": 41.59514, "lon": 0.73515, "alt": 231, "provincia": "Lleida"}, "XN": {"nom": "Seròs", "lat": 41.46373, "lon": 0.42766, "alt": 89, "provincia": "Lleida"}, "XO": {"nom": "Vic", "lat": 41.93498, "lon": 2.23984, "alt": 500, "provincia": "Barcelona"}, "XP": {"nom": "Gandesa", "lat": 41.06564, "lon": 0.43006, "alt": 351, "provincia": "Tarragona"}, "XQ": {"nom": "Tremp", "lat": 42.16255, "lon": 0.88811, "alt": 474, "provincia": "Lleida"}, "XR": {"nom": "Prades", "lat": 41.31481, "lon": 0.98161, "alt": 927, "provincia": "Tarragona"}, "XS": {"nom": "Santa Coloma de Farners", "lat": 41.86491, "lon": 2.66444, "alt": 165, "provincia": "Girona"}, "XT": {"nom": "Solsona", "lat": 41.98762, "lon": 1.51159, "alt": 692, "provincia": "Lleida"}, "XU": {"nom": "Canyelles", "lat": 41.288, "lon": 1.72201, "alt": 150, "provincia": "Barcelona"}, "XV": {"nom": "Sant Cugat del Vallès - CAR", "lat": 41.48318, "lon": 2.07947, "alt": 157, "provincia": "Barcelona"}, "XW": {"nom": "Lleida - la Bordeta", "lat": 41.59822, "lon": 0.64855, "alt": 165, "provincia": "Lleida"}, "XX": {"nom": "Anglesola - Tornabous", "lat": 41.68834, "lon": 1.04477, "alt": 292, "provincia": "Lleida"}, "XY": {"nom": "Alcarràs", "lat": 41.56505, "lon": 0.55029, "alt": 125, "provincia": "Lleida"}, "XZ": {"nom": "Torroella de Fluvià", "lat": 42.18138, "lon": 3.06207, "alt": 7, "provincia": "Girona"}, "Y4": {"nom": "Alinyà", "lat": 42.17427, "lon": 1.42769, "alt": 1161, "provincia": "Lleida"}, "Y5": {"nom": "Navata", "lat": 42.22792, "lon": 2.86242, "alt": 152, "provincia": "Girona"}, "Y6": {"nom": "Tivissa", "lat": 41.04342, "lon": 0.74029, "alt": 317, "provincia": "Tarragona"}, "Y7": {"nom": "Port de Barcelona - Bocana Sud", "lat": 41.31726, "lon": 2.16539, "alt": 3, "provincia": "Barcelona"}, "Y9": {"nom": "Port de Barcelona - ZAL Prat (ca l'Arana)", "lat": 41.31723, "lon": 2.13091, "alt": 4, "provincia": "Barcelona"}, "YA": {"nom": "Puigcerdà", "lat": 42.44013, "lon": 1.93482, "alt": 1214, "provincia": "Girona"}, "YB": {"nom": "Olot", "lat": 42.18811, "lon": 2.47094, "alt": 435, "provincia": "Girona"}, "YC": {"nom": "la Pobla de Segur", "lat": 42.24385, "lon": 0.96801, "alt": 508, "provincia": "Lleida"}, "YD": {"nom": "les Borges Blanques", "lat": 41.51124, "lon": 0.8561, "alt": 283, "provincia": "Lleida"}, "YE": {"nom": "Massoteres", "lat": 41.79405, "lon": 1.30575, "alt": 512, "provincia": "Lleida"}, "YF": {"nom": "Miami Platja", "lat": 41.02066, "lon": 0.9345, "alt": 43, "provincia": "Tarragona"}, "YG": {"nom": "Tírvia", "lat": 42.51881, "lon": 1.24244, "alt": 955, "provincia": "Lleida"}, "YH": {"nom": "Pujalt", "lat": 41.71735, "lon": 1.42404, "alt": 748, "provincia": "Barcelona"}, "YJ": {"nom": "Lleida - la Femosa", "lat": 41.58449, "lon": 0.64217, "alt": 170, "provincia": "Lleida"}, "YK": {"nom": "Terrassa", "lat": 41.55363, "lon": 1.99006, "alt": 314, "provincia": "Barcelona"}, "YL": {"nom": "Riudecanyes", "lat": 41.12267, "lon": 0.96958, "alt": 171, "provincia": "Tarragona"}, "YM": {"nom": "Granollers", "lat": 41.60929, "lon": 2.29847, "alt": 211, "provincia": "Barcelona"}, "YN": {"nom": "Vielha - Elipòrt", "lat": 42.69737, "lon": 0.80197, "alt": 1029, "provincia": "Lleida"}, "YO": {"nom": "Sant Sadurní d'Anoia", "lat": 41.4353, "lon": 1.79322, "alt": 155, "provincia": "Barcelona"}, "YP": {"nom": "Palafrugell", "lat": 41.90694, "lon": 3.16073, "alt": 35, "provincia": "Girona"}, "YQ": {"nom": "Port de Barcelona - ZAL Prat", "lat": 41.31928, "lon": 2.1372, "alt": 5, "provincia": "Barcelona"}, "YR": {"nom": "Vilanova i la Geltrú", "lat": 41.23578, "lon": 1.73141, "alt": 32, "provincia": "Barcelona"}, "YS": {"nom": "Cabanes", "lat": 42.32038, "lon": 2.956401, "alt": 35, "provincia": "Girona"}, "YT": {"nom": "Bonabé (1.691 m)", "lat": 42.75094, "lon": 1.07527, "alt": 1691, "provincia": "Lleida"}, "YU": {"nom": "Cantonigròs", "lat": 42.04264, "lon": 2.40474, "alt": 927, "provincia": "Barcelona"}, "YV": {"nom": "Mataró", "lat": 41.54518, "lon": 2.43322, "alt": 88, "provincia": "Barcelona"}, "YX": {"nom": "Batea", "lat": 41.08318, "lon": 0.31694, "alt": 403, "provincia": "Tarragona"}, "YY": {"nom": "Viladecans - les Filipines", "lat": 41.28797, "lon": 2.04487, "alt": 2, "provincia": "Barcelona"}, "Z1": {"nom": "Bonaigua (2.262 m)", "lat": 42.64691, "lon": 0.98486, "alt": 2262, "provincia": "Lleida"}, "Z2": {"nom": "Boí (2.537 m)", "lat": 42.46603, "lon": 0.88403, "alt": 2537, "provincia": "Lleida"}, "Z3": {"nom": "Malniu (2.229 m)", "lat": 42.46605, "lon": 1.7785, "alt": 2229, "provincia": "Girona"}, "Z4": {"nom": "Ulldeter (2.364 m)", "lat": 42.42205, "lon": 2.2524, "alt": 2364, "provincia": "Girona"}, "Z5": {"nom": "Certascan (2.398 m)", "lat": 42.7003, "lon": 1.272, "alt": 2398, "provincia": "Lleida"}, "Z6": {"nom": "Sasseuva (2.226 m)", "lat": 42.77011, "lon": 0.73198, "alt": 2226, "provincia": "Lleida"}, "Z7": {"nom": "Espot (2.519 m)", "lat": 42.5341, "lon": 1.05474, "alt": 2519, "provincia": "Lleida"}, "Z8": {"nom": "el Port del Comte (2.316 m)", "lat": 42.18254, "lon": 1.52407, "alt": 2316, "provincia": "Lleida"}, "Z9": {"nom": "Cadí Nord (2.145 m) - Prat d'Aguiló", "lat": 42.29265, "lon": 1.71498, "alt": 2145, "provincia": "Lleida"}, "ZB": {"nom": "Salòria (2.451 m)", "lat": 42.51939, "lon": 1.36597, "alt": 2451, "provincia": "Lleida"}, "ZC": {"nom": "Ulldeter (2.413 m)", "lat": 42.42102, "lon": 2.24593, "alt": 2413, "provincia": "Girona"}, "ZD": {"nom": "la Tosa d'Alp (2.478 m)", "lat": 42.32213, "lon": 1.89716, "alt": 2478, "provincia": "Girona"}, "ZE": {"nom": "el Port del Comte (2.288 m)", "lat": 42.19084, "lon": 1.53213, "alt": 2288, "provincia": "Lleida"}}